
2018-07-13 08:03:29:212

$GPGGA,060328.00,3935.0926438,N,00023.8657848,W,1,15,0.71,55.7281,M,51.9152,M,,*73
$GNGSA,M,3,12,25,32,15,24,19,02,17,06,,,,1.34,0.71,1.14*19
$GNGSA,M,3,66,75,74,84,85,65,,,,,,,1.34,0.71,1.14*17
$GNZDA,060328.00,13,07,2018,00,00*79
$GNVTG,238.684,T,238.406,M,0.0137,N,0.0253,K,A*34

2018-07-13 08:03:30:210

$GPGGA,060329.00,3935.0926532,N,00023.8657879,W,1,15,0.71,55.7312,M,51.9152,M,,*70
$GNGSA,M,3,12,25,32,15,24,19,02,17,06,,,,1.34,0.71,1.14*19
$GNGSA,M,3,66,75,74,84,85,65,,,,,,,1.34,0.71,1.14*17
$GNZDA,060329.00,13,07,2018,00,00*78
$GNVTG,305.283,T,305.005,M,0.0144,N,0.0267,K,A*33

2018-07-13 08:03:31:209

$GPGGA,060330.00,3935.0926578,N,00023.8657869,W,1,15,0.71,55.7345,M,51.9152,M,,*75
$GNGSA,M,3,12,25,32,15,24,19,02,17,06,,,,1.34,0.71,1.14*19
$GNGSA,M,3,66,75,74,84,85,65,,,,,,,1.34,0.71,1.14*17
$GNZDA,060330.00,13,07,2018,00,00*70
$GNVTG,080.376,T,080.098,M,0.0046,N,0.0086,K,A*32

2018-07-13 08:03:32:209

$GPGGA,060331.00,3935.0926600,N,00023.8657896,W,1,15,0.71,55.7549,M,51.9152,M,,*72
$GNGSA,M,3,12,25,32,15,24,19,02,17,06,,,,1.34,0.71,1.14*19
$GNGSA,M,3,66,75,74,84,85,65,,,,,,,1.34,0.71,1.14*17
$GNZDA,060331.00,13,07,2018,00,00*71
$GNVTG,275.266,T,274.988,M,0.0094,N,0.0174,K,A*38

2018-07-13 08:03:33:209

$GPGGA,060332.00,3935.0926597,N,00023.8657789,W,1,15,0.71,55.7816,M,51.9152,M,,*7A
$GNGSA,M,3,12,25,32,15,24,19,02,17,06,,,,1.34,0.71,1.14*19
$GNGSA,M,3,66,75,74,84,85,65,,,,,,,1.34,0.71,1.14*17
$GNZDA,060332.00,13,07,2018,00,00*72
$GNVTG,109.192,T,108.914,M,0.0577,N,0.1068,K,A*30

2018-07-13 08:03:34:210

$GPGGA,060333.00,3935.0926708,N,00023.8657434,W,1,15,0.71,55.8429,M,51.9152,M,,*75
$GNGSA,M,3,12,25,32,15,24,19,02,17,06,,,,1.34,0.71,1.14*19
$GNGSA,M,3,66,75,74,84,85,65,,,,,,,1.34,0.71,1.14*17
$GNZDA,060333.00,13,07,2018,00,00*73
$GNVTG,202.347,T,202.069,M,0.0300,N,0.0555,K,A*34

2018-07-13 08:03:35:210

$GPGGA,060334.00,3935.0926698,N,00023.8657502,W,1,15,0.71,55.8276,M,51.9152,M,,*72
$GNGSA,M,3,12,25,32,15,24,19,02,17,06,,,,1.34,0.71,1.14*19
$GNGSA,M,3,66,75,74,84,85,65,,,,,,,1.34,0.71,1.14*17
$GNZDA,060334.00,13,07,2018,00,00*74
$GNVTG,268.716,T,268.438,M,0.0246,N,0.0456,K,A*35

2018-07-13 08:03:36:210

$GPGGA,060335.00,3935.0926705,N,00023.8657718,W,1,15,0.71,55.8278,M,51.9152,M,,*71
$GNGSA,M,3,12,25,32,15,24,19,02,17,06,,,,1.34,0.71,1.14*19
$GNGSA,M,3,66,75,74,84,85,65,,,,,,,1.34,0.71,1.14*17
$GNZDA,060335.00,13,07,2018,00,00*75
$GNVTG,227.320,T,227.041,M,0.0652,N,0.1208,K,A*33

2018-07-13 08:03:37:209

$GPGGA,060336.00,3935.0926712,N,00023.8658039,W,1,15,0.71,55.8048,M,51.9152,M,,*7E
$GNGSA,M,3,12,25,32,15,24,19,02,17,06,,,,1.34,0.71,1.14*19
$GNGSA,M,3,66,75,74,84,85,65,,,,,,,1.34,0.71,1.14*17
$GNZDA,060336.00,13,07,2018,00,00*76
$GNVTG,254.187,T,253.908,M,0.1390,N,0.2574,K,A*3A

2018-07-13 08:03:38:210

$GPGGA,060337.00,3935.0926519,N,00023.8658717,W,1,15,0.71,55.7469,M,51.9152,M,,*75
$GNGSA,M,3,12,25,32,15,24,19,02,17,06,,,,1.34,0.71,1.14*19
$GNGSA,M,3,66,75,74,84,85,65,,,,,,,1.34,0.71,1.14*17
$GNZDA,060337.00,13,07,2018,00,00*77
$GNVTG,340.918,T,340.640,M,0.0342,N,0.0634,K,A*3B

2018-07-13 08:03:39:210

$GPGGA,060338.00,3935.0926655,N,00023.8658649,W,1,15,0.71,55.7590,M,51.9152,M,,*7C
$GNGSA,M,3,12,25,32,15,24,19,02,17,06,,,,1.34,0.71,1.14*19
$GNGSA,M,3,66,75,74,84,85,65,,,,,,,1.34,0.71,1.14*17
$GNZDA,060338.00,13,07,2018,00,00*78
$GNVTG,244.626,T,244.347,M,0.0151,N,0.0279,K,A*36

2018-07-13 08:03:40:210

$GPGGA,060339.00,3935.0926963,N,00023.8658656,W,1,15,0.71,55.7968,M,51.9152,M,,*72
$GNGSA,M,3,12,25,32,15,24,19,02,17,06,,,,1.34,0.71,1.14*19
$GNGSA,M,3,66,75,74,84,85,65,,,,,,,1.34,0.71,1.14*17
$GNZDA,060339.00,13,07,2018,00,00*79
$GNVTG,034.876,T,034.598,M,0.0726,N,0.1345,K,A*30

2018-07-13 08:03:41:210

$GPGGA,060340.00,3935.0927274,N,00023.8658771,W,1,15,0.71,55.8269,M,51.9152,M,,*71
$GNGSA,M,3,12,25,32,15,24,19,02,17,06,,,,1.34,0.71,1.14*19
$GNGSA,M,3,66,75,74,84,85,65,,,,,,,1.34,0.71,1.14*17
$GNZDA,060340.00,13,07,2018,00,00*77
$GNVTG,010.769,T,010.491,M,0.0109,N,0.0203,K,A*30

2018-07-13 08:03:42:210

$GPGGA,060341.00,3935.0927472,N,00023.8658984,W,1,16,0.65,55.8068,M,51.9152,M,,*71
$GNGSA,M,3,12,25,32,15,24,19,02,20,17,06,,,1.19,0.65,0.99*15
$GNGSA,M,3,66,75,74,84,85,65,,,,,,,1.19,0.65,0.99*19
$GNZDA,060341.00,13,07,2018,00,00*76
$GNVTG,166.145,T,165.867,M,0.0312,N,0.0577,K,A*32

2018-07-13 08:03:43:210

$GPGGA,060342.00,3935.0927484,N,00023.8658628,W,1,16,0.65,55.8931,M,51.9152,M,,*77
$GNGSA,M,3,12,25,32,15,24,19,02,20,17,06,,,1.19,0.65,0.99*15
$GNGSA,M,3,66,75,74,84,85,65,,,,,,,1.19,0.65,0.99*19
$GNZDA,060342.00,13,07,2018,00,00*75
$GNVTG,064.760,T,064.482,M,0.0397,N,0.0736,K,A*3D

2018-07-13 08:03:44:210

$GPGGA,060343.00,3935.0927040,N,00023.8659837,W,1,15,0.68,55.8174,M,51.9152,M,,*7C
$GNGSA,M,3,12,25,32,15,24,19,02,20,17,06,,,1.20,0.68,0.99*12
$GNGSA,M,3,66,75,74,84,85,,,,,,,,1.20,0.68,0.99*1D
$GNZDA,060343.00,13,07,2018,00,00*74
$GNVTG,282.892,T,282.613,M,0.0055,N,0.0101,K,A*3A

2018-07-13 08:03:45:210

$GPGGA,060344.00,3935.0927185,N,00023.8660214,W,1,15,0.68,55.7505,M,51.9152,M,,*7F
$GNGSA,M,3,12,25,32,15,24,19,02,20,17,06,,,1.20,0.68,0.99*12
$GNGSA,M,3,66,75,74,84,85,,,,,,,,1.20,0.68,0.99*1D
$GNZDA,060344.00,13,07,2018,00,00*73
$GNVTG,214.330,T,214.051,M,0.0066,N,0.0122,K,A*38

2018-07-13 08:03:46:210

$GPGGA,060345.00,3935.0927415,N,00023.8660377,W,1,15,0.68,55.7408,M,51.9152,M,,*7A
$GNGSA,M,3,12,25,32,15,24,19,02,20,17,06,,,1.20,0.68,0.99*12
$GNGSA,M,3,66,75,74,84,85,,,,,,,,1.20,0.68,0.99*1D
$GNZDA,060345.00,13,07,2018,00,00*72
$GNVTG,080.232,T,079.954,M,0.0037,N,0.0069,K,A*3B

2018-07-13 08:03:47:211

$GPGGA,060346.00,3935.0935670,N,00023.8661475,W,1,15,0.68,56.1019,M,51.9152,M,,*7E
$GNGSA,M,3,12,25,32,15,24,19,02,20,17,06,,,1.20,0.68,0.99*12
$GNGSA,M,3,66,75,74,84,85,,,,,,,,1.20,0.68,0.99*1D
$GNZDA,060346.00,13,07,2018,00,00*71
$GNVTG,193.662,T,193.383,M,0.0129,N,0.0239,K,A*35

2018-07-13 08:03:48:210

$GPGGA,060347.00,3935.0936857,N,00023.8661762,W,1,15,0.68,56.1085,M,51.9152,M,,*77
$GNGSA,M,3,12,25,32,15,24,19,02,20,17,06,,,1.20,0.68,0.99*12
$GNGSA,M,3,66,75,74,84,85,,,,,,,,1.20,0.68,0.99*1D
$GNZDA,060347.00,13,07,2018,00,00*70
$GNVTG,044.293,T,044.015,M,0.0008,N,0.0015,K,A*3D

2018-07-13 08:03:49:210

$GPGGA,060348.00,3935.0936939,N,00023.8661895,W,1,15,0.68,56.0876,M,51.9152,M,,*73
$GNGSA,M,3,12,25,32,15,24,19,02,20,17,06,,,1.20,0.68,0.99*12
$GNGSA,M,3,66,75,74,84,85,,,,,,,,1.20,0.68,0.99*1D
$GNZDA,060348.00,13,07,2018,00,00*7F
$GNVTG,001.654,T,001.376,M,0.0391,N,0.0725,K,A*33

2018-07-13 08:03:50:210

$GPGGA,060349.00,3935.0937269,N,00023.8662065,W,1,15,0.68,56.0568,M,51.9152,M,,*7B
$GNGSA,M,3,12,25,32,15,24,19,02,20,17,06,,,1.20,0.68,0.99*12
$GNGSA,M,3,66,75,74,84,85,,,,,,,,1.20,0.68,0.99*1D
$GNZDA,060349.00,13,07,2018,00,00*7E
$GNVTG,225.031,T,224.752,M,0.0262,N,0.0485,K,A*31

2018-07-13 08:03:51:210

$GPGGA,060350.00,3935.0937554,N,00023.8662224,W,1,15,0.68,56.0444,M,51.9152,M,,*72
$GNGSA,M,3,12,25,32,15,24,19,02,20,17,06,,,1.20,0.68,0.99*12
$GNGSA,M,3,66,75,74,84,85,,,,,,,,1.20,0.68,0.99*1D
$GNZDA,060350.00,13,07,2018,00,00*76
$GNVTG,189.344,T,189.066,M,0.0119,N,0.0220,K,A*37

2018-07-13 08:03:52:210

$GPGGA,060351.00,3935.0937820,N,00023.8662370,W,1,15,0.68,56.0298,M,51.9152,M,,*7A
$GNGSA,M,3,12,25,32,15,24,19,02,20,17,06,,,1.20,0.68,0.99*12
$GNGSA,M,3,66,75,74,84,85,,,,,,,,1.20,0.68,0.99*1D
$GNZDA,060351.00,13,07,2018,00,00*77
$GNVTG,164.509,T,164.231,M,0.0010,N,0.0018,K,A*39

2018-07-13 08:03:53:210

$GPGGA,060352.00,3935.0938192,N,00023.8662393,W,1,15,0.68,56.0323,M,51.9152,M,,*7A
$GNGSA,M,3,12,25,32,15,24,19,02,20,17,06,,,1.20,0.68,0.99*12
$GNGSA,M,3,66,75,74,84,85,,,,,,,,1.20,0.68,0.99*1D
$GNZDA,060352.00,13,07,2018,00,00*74
$GNVTG,023.257,T,022.979,M,0.0155,N,0.0287,K,A*37

2018-07-13 08:03:54:213

$GPGGA,060353.00,3935.0937570,N,00023.8662382,W,1,15,0.68,55.9942,M,51.9152,M,,*7B
$GNGSA,M,3,12,25,32,15,24,19,02,20,17,06,,,1.20,0.68,0.99*12
$GNGSA,M,3,66,75,74,84,85,,,,,,,,1.20,0.68,0.99*1D
$GNZDA,060353.00,13,07,2018,00,00*75
$GNVTG,221.003,T,220.725,M,0.0506,N,0.0937,K,A*31

2018-07-13 08:03:55:213

$GPGGA,060354.00,3935.0936433,N,00023.8662342,W,1,15,0.68,55.9543,M,51.9152,M,,*7A
$GNGSA,M,3,12,25,32,15,24,19,02,20,17,06,,,1.20,0.68,0.99*12
$GNGSA,M,3,66,75,74,84,85,,,,,,,,1.20,0.68,0.99*1D
$GNZDA,060354.00,13,07,2018,00,00*72
$GNVTG,197.561,T,197.282,M,0.0470,N,0.0871,K,A*3A

2018-07-13 08:03:56:211

$GPGGA,060355.00,3935.0934747,N,00023.8662412,W,1,15,0.68,55.8983,M,51.9152,M,,*7A
$GNGSA,M,3,12,25,32,15,24,19,02,20,17,06,,,1.20,0.68,0.99*12
$GNGSA,M,3,66,75,74,84,85,,,,,,,,1.20,0.68,0.99*1D
$GNZDA,060355.00,13,07,2018,00,00*73
$GNVTG,194.357,T,194.079,M,0.0211,N,0.0390,K,A*3A

2018-07-13 08:03:57:211

$GPGGA,060356.00,3935.0933527,N,00023.8661896,W,1,16,0.65,55.8582,M,51.9152,M,,*7A
$GNGSA,M,3,12,25,32,15,24,19,02,20,17,06,,,1.19,0.65,0.99*15
$GNGSA,M,3,66,75,74,84,85,65,,,,,,,1.19,0.65,0.99*19
$GNZDA,060356.00,13,07,2018,00,00*70
$GNVTG,200.023,T,199.745,M,0.0581,N,0.1075,K,A*36

2018-07-13 08:03:58:211

$GPGGA,060357.00,3935.0930976,N,00023.8662379,W,1,16,0.65,55.7477,M,51.9152,M,,*7D
$GNGSA,M,3,12,25,32,15,24,19,02,20,17,06,,,1.19,0.65,0.99*15
$GNGSA,M,3,66,75,74,84,85,65,,,,,,,1.19,0.65,0.99*19
$GNZDA,060357.00,13,07,2018,00,00*71
$GNVTG,253.655,T,253.377,M,0.5912,N,1.0950,K,A*3A

2018-07-13 08:03:59:211

$GPGGA,060358.00,3935.0929185,N,00023.8664373,W,1,16,0.65,55.7448,M,51.9152,M,,*7E
$GNGSA,M,3,12,25,32,15,24,19,02,20,17,06,,,1.19,0.65,0.99*15
$GNGSA,M,3,66,75,74,84,85,65,,,,,,,1.19,0.65,0.99*19
$GNZDA,060358.00,13,07,2018,00,00*7E
$GNVTG,229.599,T,229.320,M,0.7268,N,1.3460,K,A*32

2018-07-13 08:04:00:211

$GPGGA,060359.00,3935.0927914,N,00023.8666055,W,1,16,0.66,55.9855,M,51.9152,M,,*79
$GNGSA,M,3,12,25,32,15,24,19,02,20,17,29,06,,1.21,0.66,1.02*15
$GNGSA,M,3,75,74,84,85,65,,,,,,,,1.21,0.66,1.02*12
$GNZDA,060359.00,13,07,2018,00,00*7F
$GNVTG,243.978,T,243.699,M,0.9356,N,1.7328,K,A*3B

2018-07-13 08:04:01:211

$GPGGA,060400.00,3935.0925293,N,00023.8668082,W,1,14,0.73,55.7049,M,51.9152,M,,*7D
$GNGSA,M,3,12,25,32,15,24,19,20,17,29,06,,,1.26,0.73,1.03*15
$GNGSA,M,3,75,74,84,85,,,,,,,,,1.26,0.73,1.03*13
$GNZDA,060400.00,13,07,2018,00,00*74
$GNVTG,086.565,T,086.287,M,0.1221,N,0.2261,K,A*31

2018-07-13 08:04:02:212

$GPGGA,060401.00,3935.0925276,N,00023.8667697,W,1,15,0.66,55.7272,M,51.9152,M,,*75
$GNGSA,M,3,12,25,32,15,24,19,20,17,29,06,,,1.19,0.66,0.99*1F
$GNGSA,M,3,66,75,74,84,85,,,,,,,,1.19,0.66,0.99*19
$GNZDA,060401.00,13,07,2018,00,00*75
$GNVTG,243.669,T,243.391,M,0.1499,N,0.2776,K,A*3E

2018-07-13 08:04:03:211

$GPGGA,060402.00,3935.0924298,N,00023.8667714,W,1,15,0.66,55.6638,M,51.9152,M,,*76
$GNGSA,M,3,12,25,32,15,24,19,20,17,29,06,,,1.19,0.66,0.99*1F
$GNGSA,M,3,66,75,74,84,85,,,,,,,,1.19,0.66,0.99*19
$GNZDA,060402.00,13,07,2018,00,00*76
$GNVTG,181.728,T,181.449,M,0.0958,N,0.1775,K,A*39

2018-07-13 08:04:04:212

$GPGGA,060403.00,3935.0923216,N,00023.8667242,W,1,14,0.73,55.7911,M,51.9152,M,,*70
$GNGSA,M,3,12,25,32,15,24,19,20,17,29,06,,,1.26,0.73,1.03*15
$GNGSA,M,3,75,74,84,85,,,,,,,,,1.26,0.73,1.03*13
$GNZDA,060403.00,13,07,2018,00,00*77
$GNVTG,255.411,T,255.132,M,0.5218,N,0.9664,K,A*3A

2018-07-13 08:04:05:212

$GPGGA,060404.00,3935.0918416,N,00023.8665216,W,1,14,0.73,56.2532,M,51.9152,M,,*71
$GNGSA,M,3,12,25,32,15,24,19,20,17,29,06,,,1.26,0.73,1.03*15
$GNGSA,M,3,75,74,84,85,,,,,,,,,1.26,0.73,1.03*13
$GNZDA,060404.00,13,07,2018,00,00*70
$GNVTG,251.049,T,250.770,M,0.7706,N,1.4271,K,A*36

2018-07-13 08:04:06:212

$GPGGA,060405.00,3935.0918894,N,00023.8667290,W,1,15,0.66,56.1175,M,51.9152,M,,*7B
$GNGSA,M,3,12,25,32,15,24,19,20,17,29,06,,,1.18,0.66,0.98*1F
$GNGSA,M,3,76,75,74,84,85,,,,,,,,1.18,0.66,0.98*18
$GNZDA,060405.00,13,07,2018,00,00*71
$GNVTG,248.242,T,247.963,M,0.2940,N,0.5445,K,A*35

2018-07-13 08:04:07:213

$GPGGA,060406.00,3935.0921547,N,00023.8670410,W,1,15,0.68,55.7490,M,51.9152,M,,*7C
$GNGSA,M,3,12,25,32,24,19,20,17,29,06,,,,1.18,0.68,0.97*1A
$GNGSA,M,3,76,66,75,74,84,85,,,,,,,1.18,0.68,0.97*19
$GNZDA,060406.00,13,07,2018,00,00*72
$GNVTG,292.240,T,291.962,M,0.1067,N,0.1977,K,A*3D

2018-07-13 08:04:08:212

$GPGGA,060407.00,3935.0920244,N,00023.8671670,W,1,15,0.68,55.2286,M,51.9152,M,,*79
$GNGSA,M,3,12,25,32,24,19,20,17,29,06,,,,1.18,0.68,0.97*1A
$GNGSA,M,3,76,66,75,74,84,85,,,,,,,1.18,0.68,0.97*19
$GNZDA,060407.00,13,07,2018,00,00*73
$GNVTG,346.432,T,346.154,M,0.0655,N,0.1212,K,A*3E

2018-07-13 08:04:09:213

$GPGGA,060408.00,3935.0919407,N,00023.8671074,W,1,14,0.76,55.2715,M,51.9152,M,,*7E
$GNGSA,M,3,12,25,32,24,19,20,17,29,06,,,,1.29,0.76,1.04*1C
$GNGSA,M,3,75,74,84,85,65,,,,,,,,1.29,0.76,1.04*1D
$GNZDA,060408.00,13,07,2018,00,00*7C
$GNVTG,264.440,T,264.161,M,0.8544,N,1.5823,K,A*3B

2018-07-13 08:04:10:212

$GPGGA,060409.00,3935.0921704,N,00023.8676380,W,1,15,0.66,55.0689,M,51.9152,M,,*7D
$GNGSA,M,3,12,25,32,15,24,19,20,17,29,06,,,1.19,0.66,0.99*1F
$GNGSA,M,3,66,75,74,84,85,,,,,,,,1.19,0.66,0.99*19
$GNZDA,060409.00,13,07,2018,00,00*7D
$GNVTG,231.710,T,231.431,M,0.2881,N,0.5335,K,A*3E

2018-07-13 08:04:11:213

$GPGGA,060410.00,3935.0921833,N,00023.8675904,W,1,17,0.62,55.1151,M,51.9152,M,,*7E
$GNGSA,M,3,12,25,32,15,24,19,20,17,29,06,,,1.14,0.62,0.96*19
$GNGSA,M,3,76,66,75,74,84,85,65,,,,,,1.14,0.62,0.96*1D
$GNZDA,060410.00,13,07,2018,00,00*75
$GNVTG,276.350,T,276.071,M,0.0088,N,0.0162,K,A*38

2018-07-13 08:04:12:212

$GPGGA,060411.00,3935.0921584,N,00023.8676292,W,1,17,0.62,55.1691,M,51.9152,M,,*72
$GNGSA,M,3,12,25,32,15,24,19,20,17,29,06,,,1.14,0.62,0.96*19
$GNGSA,M,3,76,66,75,74,84,85,65,,,,,,1.14,0.62,0.96*1D
$GNZDA,060411.00,13,07,2018,00,00*74
$GNVTG,248.774,T,248.495,M,0.5284,N,0.9786,K,A*3A

2018-07-13 08:04:13:213

$GPGGA,060412.00,3935.0921232,N,00023.8678080,W,1,17,0.62,55.2266,M,51.9152,M,,*7B
$GNGSA,M,3,12,25,32,15,24,19,20,17,29,06,,,1.14,0.62,0.96*19
$GNGSA,M,3,76,66,75,74,84,85,65,,,,,,1.14,0.62,0.96*1D
$GNZDA,060412.00,13,07,2018,00,00*77
$GNVTG,244.134,T,243.856,M,0.5468,N,1.0126,K,A*3C

2018-07-13 08:04:14:213

$GPGGA,060413.00,3935.0921549,N,00023.8677173,W,1,18,0.59,55.4892,M,51.9152,M,,*73
$GNGSA,M,3,12,25,32,15,24,19,20,17,29,06,,,1.11,0.59,0.94*16
$GNGSA,M,3,76,66,75,74,84,85,72,65,,,,,1.11,0.59,0.94*17
$GNZDA,060413.00,13,07,2018,00,00*76
$GNVTG,216.156,T,215.878,M,0.0577,N,0.1069,K,A*30

2018-07-13 08:04:15:213

$GPGGA,060414.00,3935.0921076,N,00023.8678602,W,1,18,0.59,55.0759,M,51.9152,M,,*7F
$GNGSA,M,3,12,25,32,15,24,19,20,17,29,06,,,1.11,0.59,0.94*16
$GNGSA,M,3,76,66,75,74,84,85,72,65,,,,,1.11,0.59,0.94*17
$GNZDA,060414.00,13,07,2018,00,00*71
$GNVTG,059.505,T,059.227,M,0.0339,N,0.0628,K,A*3F

2018-07-13 08:04:16:214

$GPGGA,060415.00,3935.0920834,N,00023.8679511,W,1,17,0.61,54.8675,M,51.9152,M,,*73
$GNGSA,M,3,12,25,32,15,24,19,17,29,06,,,,1.17,0.61,1.00*15
$GNGSA,M,3,76,66,75,74,84,85,72,65,,,,,1.17,0.61,1.00*16
$GNZDA,060415.00,13,07,2018,00,00*70
$GNVTG,223.297,T,223.019,M,0.2019,N,0.3739,K,A*3D

2018-07-13 08:04:17:213

$GPGGA,060416.00,3935.0920488,N,00023.8681752,W,1,17,0.61,54.8038,M,51.9152,M,,*76
$GNGSA,M,3,12,25,32,15,24,19,17,29,06,,,,1.17,0.61,1.00*15
$GNGSA,M,3,76,66,75,74,84,85,72,65,,,,,1.17,0.61,1.00*16
$GNZDA,060416.00,13,07,2018,00,00*73
$GNVTG,250.197,T,249.918,M,0.7931,N,1.4687,K,A*3A

2018-07-13 08:04:18:213

$GPGGA,060417.00,3935.0919598,N,00023.8683352,W,1,16,0.63,55.0821,M,51.9152,M,,*71
$GNGSA,M,3,12,25,32,15,24,19,20,17,29,06,,,1.15,0.63,0.97*18
$GNGSA,M,3,66,75,74,84,85,72,,,,,,,1.15,0.63,0.97*1B
$GNZDA,060417.00,13,07,2018,00,00*72
$GNVTG,236.650,T,236.372,M,0.0886,N,0.1641,K,A*3C

2018-07-13 08:04:19:212

$GPGGA,060418.00,3935.0919463,N,00023.8682472,W,1,15,0.65,55.0338,M,51.9152,M,,*79
$GNGSA,M,3,12,32,15,24,19,20,17,29,06,,,,1.20,0.65,1.01*11
$GNGSA,M,3,66,75,74,84,85,72,,,,,,,1.20,0.65,1.01*15
$GNZDA,060418.00,13,07,2018,00,00*7D
$GNVTG,248.074,T,247.796,M,0.1334,N,0.2471,K,A*3C

2018-07-13 08:04:20:216

$GPGGA,060419.00,3935.0918943,N,00023.8684678,W,1,16,0.63,55.1205,M,51.9152,M,,*73
$GNGSA,M,3,12,25,32,15,24,19,20,17,29,06,,,1.15,0.63,0.97*18
$GNGSA,M,3,66,75,74,84,85,72,,,,,,,1.15,0.63,0.97*1B
$GNZDA,060419.00,13,07,2018,00,00*7C
$GNVTG,250.389,T,250.111,M,0.5215,N,0.9658,K,A*3F

2018-07-13 08:04:21:215

$GPGGA,060420.00,3935.0918585,N,00023.8684973,W,1,16,0.63,55.3754,M,51.9152,M,,*78
$GNGSA,M,3,12,25,32,15,24,19,20,17,29,06,,,1.15,0.63,0.97*18
$GNGSA,M,3,66,75,74,84,85,72,,,,,,,1.15,0.63,0.97*1B
$GNZDA,060420.00,13,07,2018,00,00*76
$GNVTG,241.432,T,241.154,M,0.3452,N,0.6394,K,A*30

2018-07-13 08:04:22:214

$GPGGA,060421.00,3935.0918299,N,00023.8685583,W,1,16,0.63,55.4542,M,51.9152,M,,*73
$GNGSA,M,3,12,25,32,15,24,19,20,17,29,06,,,1.15,0.63,0.97*18
$GNGSA,M,3,66,75,74,84,85,72,,,,,,,1.15,0.63,0.97*1B
$GNZDA,060421.00,13,07,2018,00,00*77
$GNVTG,231.323,T,231.045,M,0.3359,N,0.6222,K,A*36

2018-07-13 08:04:23:213

$GPGGA,060422.00,3935.0917979,N,00023.8686334,W,1,16,0.63,55.5370,M,51.9152,M,,*75
$GNGSA,M,3,12,25,32,15,24,19,20,17,29,06,,,1.15,0.63,0.97*18
$GNGSA,M,3,66,75,74,84,85,72,,,,,,,1.15,0.63,0.97*1B
$GNZDA,060422.00,13,07,2018,00,00*74
$GNVTG,074.587,T,074.309,M,0.1247,N,0.2310,K,A*3D

2018-07-13 08:04:24:214

$GPGGA,060423.00,3935.0917790,N,00023.8687750,W,1,16,0.63,55.1355,M,51.9152,M,,*79
$GNGSA,M,3,12,25,32,15,24,19,20,17,29,06,,,1.15,0.63,0.97*18
$GNGSA,M,3,66,75,74,84,85,72,,,,,,,1.15,0.63,0.97*1B
$GNZDA,060423.00,13,07,2018,00,00*75
$GNVTG,235.009,T,234.731,M,0.1937,N,0.3588,K,A*3A

2018-07-13 08:04:25:214

$GPGGA,060424.00,3935.0917612,N,00023.8687721,W,1,16,0.63,55.2671,M,51.9152,M,,*73
$GNGSA,M,3,12,25,32,15,24,19,20,17,29,06,,,1.15,0.63,0.97*18
$GNGSA,M,3,66,75,74,84,85,72,,,,,,,1.15,0.63,0.97*1B
$GNZDA,060424.00,13,07,2018,00,00*72
$GNVTG,242.820,T,242.541,M,0.1779,N,0.3295,K,A*32

2018-07-13 08:04:26:214

$GPGGA,060425.00,3935.0917511,N,00023.8688570,W,1,16,0.63,55.2141,M,51.9152,M,,*7F
$GNGSA,M,3,12,25,32,15,24,19,20,17,29,06,,,1.15,0.63,0.97*18
$GNGSA,M,3,66,75,74,84,85,72,,,,,,,1.15,0.63,0.97*1B
$GNZDA,060425.00,13,07,2018,00,00*73
$GNVTG,232.519,T,232.240,M,0.1420,N,0.2630,K,A*36

2018-07-13 08:04:27:213

$GPGGA,060426.00,3935.0917581,N,00023.8689647,W,1,16,0.63,55.2267,M,51.9152,M,,*74
$GNGSA,M,3,12,25,32,15,24,19,20,17,29,06,,,1.15,0.63,0.97*18
$GNGSA,M,3,66,75,74,84,85,72,,,,,,,1.15,0.63,0.97*1B
$GNZDA,060426.00,13,07,2018,00,00*70
$GNVTG,249.966,T,249.688,M,0.2576,N,0.4770,K,A*30

2018-07-13 08:04:28:213

$GPGGA,060427.00,3935.0917335,N,00023.8691025,W,1,16,0.63,55.2393,M,51.9152,M,,*7D
$GNGSA,M,3,12,25,32,15,24,19,20,17,29,06,,,1.15,0.63,0.97*18
$GNGSA,M,3,66,75,74,84,85,72,,,,,,,1.15,0.63,0.97*1B
$GNZDA,060427.00,13,07,2018,00,00*71
$GNVTG,249.078,T,248.800,M,0.4839,N,0.8961,K,A*3B

2018-07-13 08:04:29:214

$GPGGA,060428.00,3935.0916768,N,00023.8692056,W,1,16,0.63,55.2669,M,51.9152,M,,*78
$GNGSA,M,3,12,25,32,15,24,19,20,17,29,06,,,1.15,0.63,0.97*18
$GNGSA,M,3,66,75,74,84,85,72,,,,,,,1.15,0.63,0.97*1B
$GNZDA,060428.00,13,07,2018,00,00*7E
$GNVTG,250.299,T,250.021,M,0.2631,N,0.4872,K,A*33

2018-07-13 08:04:30:213

$GPGGA,060429.00,3935.0916021,N,00023.8693397,W,1,15,0.66,55.0856,M,51.9152,M,,*7A
$GNGSA,M,3,12,25,32,15,24,19,17,29,06,,,,1.23,0.66,1.04*11
$GNGSA,M,3,66,75,74,84,85,72,,,,,,,1.23,0.66,1.04*10
$GNZDA,060429.00,13,07,2018,00,00*7F
$GNVTG,248.517,T,248.238,M,0.2214,N,0.4100,K,A*37

2018-07-13 08:04:31:214

$GPGGA,060430.00,3935.0915771,N,00023.8693981,W,1,15,0.66,55.1172,M,51.9152,M,,*70
$GNGSA,M,3,12,25,32,15,24,19,17,29,06,,,,1.23,0.66,1.04*11
$GNGSA,M,3,66,75,74,84,85,72,,,,,,,1.23,0.66,1.04*10
$GNZDA,060430.00,13,07,2018,00,00*77
$GNVTG,246.165,T,245.887,M,0.3227,N,0.5976,K,A*32

2018-07-13 08:04:32:214

$GPGGA,060431.00,3935.0915851,N,00023.8695296,W,1,16,0.62,55.0076,M,51.9152,M,,*74
$GNGSA,M,3,12,25,32,15,24,19,17,29,06,,,,1.18,0.62,1.01*18
$GNGSA,M,3,66,75,74,84,85,72,76,,,,,,1.18,0.62,1.01*18
$GNZDA,060431.00,13,07,2018,00,00*76
$GNVTG,251.489,T,251.211,M,0.2591,N,0.4798,K,A*37

2018-07-13 08:04:33:214

$GPGGA,060432.00,3935.0915865,N,00023.8695663,W,1,16,0.62,54.9918,M,51.9152,M,,*77
$GNGSA,M,3,12,25,32,15,24,19,17,29,06,,,,1.18,0.62,1.01*18
$GNGSA,M,3,66,75,74,84,85,72,76,,,,,,1.18,0.62,1.01*18
$GNZDA,060432.00,13,07,2018,00,00*75
$GNVTG,057.071,T,056.792,M,0.0517,N,0.0957,K,A*3E

2018-07-13 08:04:34:214

$GPGGA,060433.00,3935.0915810,N,00023.8695635,W,1,16,0.62,54.9895,M,51.9152,M,,*73
$GNGSA,M,3,12,25,32,15,24,19,17,29,06,,,,1.18,0.62,1.01*18
$GNGSA,M,3,66,75,74,84,85,72,76,,,,,,1.18,0.62,1.01*18
$GNZDA,060433.00,13,07,2018,00,00*74
$GNVTG,241.446,T,241.168,M,0.1501,N,0.2780,K,A*3C

2018-07-13 08:04:35:214

$GPGGA,060434.00,3935.0915313,N,00023.8696040,W,1,16,0.62,55.0170,M,51.9152,M,,*71
$GNGSA,M,3,12,25,32,15,24,19,17,29,06,,,,1.18,0.62,1.01*18
$GNGSA,M,3,66,75,74,84,85,72,76,,,,,,1.18,0.62,1.01*18
$GNZDA,060434.00,13,07,2018,00,00*73
$GNVTG,243.138,T,242.860,M,0.3304,N,0.6119,K,A*33

2018-07-13 08:04:36:213

$GPGGA,060435.00,3935.0915248,N,00023.8696759,W,1,17,0.61,54.9475,M,51.9152,M,,*7A
$GNGSA,M,3,12,25,32,15,24,19,17,29,06,,,,1.17,0.61,1.00*15
$GNGSA,M,3,66,75,74,84,85,72,76,65,,,,,1.17,0.61,1.00*16
$GNZDA,060435.00,13,07,2018,00,00*72
$GNVTG,243.244,T,242.965,M,0.1023,N,0.1894,K,A*30

2018-07-13 08:04:37:215

$GPGGA,060436.00,3935.0914829,N,00023.8697934,W,1,17,0.61,54.9516,M,51.9152,M,,*75
$GNGSA,M,3,12,25,32,15,24,19,17,29,06,,,,1.17,0.61,1.00*15
$GNGSA,M,3,66,75,74,84,85,72,76,65,,,,,1.17,0.61,1.00*16
$GNZDA,060436.00,13,07,2018,00,00*71
$GNVTG,236.838,T,236.559,M,0.4746,N,0.8790,K,A*30

2018-07-13 08:04:38:214

$GPGGA,060437.00,3935.0913680,N,00023.8698588,W,1,15,0.66,55.1411,M,51.9152,M,,*70
$GNGSA,M,3,12,25,32,15,24,19,17,29,06,,,,1.23,0.66,1.04*11
$GNGSA,M,3,66,75,74,84,85,72,,,,,,,1.23,0.66,1.04*10
$GNZDA,060437.00,13,07,2018,00,00*70
$GNVTG,245.150,T,244.871,M,0.4100,N,0.7593,K,A*3B

2018-07-13 08:04:39:214

$GPGGA,060438.00,3935.0913313,N,00023.8699163,W,1,15,0.66,55.1646,M,51.9152,M,,*70
$GNGSA,M,3,12,25,32,15,24,19,17,29,06,,,,1.23,0.66,1.04*11
$GNGSA,M,3,66,75,74,84,85,72,,,,,,,1.23,0.66,1.04*10
$GNZDA,060438.00,13,07,2018,00,00*7F
$GNVTG,241.384,T,241.106,M,0.0784,N,0.1452,K,A*3C

2018-07-13 08:04:40:215

$GPGGA,060439.00,3935.0913361,N,00023.8698936,W,1,15,0.66,55.1547,M,51.9152,M,,*7F
$GNGSA,M,3,12,25,32,15,24,19,17,29,06,,,,1.23,0.66,1.04*11
$GNGSA,M,3,66,75,74,84,85,72,,,,,,,1.23,0.66,1.04*10
$GNZDA,060439.00,13,07,2018,00,00*7E
$GNVTG,021.965,T,021.686,M,0.0210,N,0.0389,K,A*3E

2018-07-13 08:04:41:215

$GPGGA,060440.00,3935.0913826,N,00023.8699452,W,1,16,0.64,55.2733,M,51.9152,M,,*74
$GNGSA,M,3,12,25,32,15,24,19,02,17,29,06,,,1.20,0.64,1.01*17
$GNGSA,M,3,66,75,74,84,85,72,,,,,,,1.20,0.64,1.01*14
$GNZDA,060440.00,13,07,2018,00,00*70
$GNVTG,207.243,T,206.965,M,0.0121,N,0.0224,K,A*35

2018-07-13 08:04:42:214

$GPGGA,060441.00,3935.0913776,N,00023.8699927,W,1,16,0.64,55.2661,M,51.9152,M,,*76
$GNGSA,M,3,12,25,32,15,24,19,02,17,29,06,,,1.20,0.64,1.01*17
$GNGSA,M,3,66,75,74,84,85,72,,,,,,,1.20,0.64,1.01*14
$GNZDA,060441.00,13,07,2018,00,00*71
$GNVTG,245.879,T,245.601,M,0.3503,N,0.6488,K,A*3B

2018-07-13 08:04:43:214

$GPGGA,060442.00,3935.0913392,N,00023.8700669,W,1,16,0.64,55.2998,M,51.9152,M,,*76
$GNGSA,M,3,12,25,32,15,24,19,02,17,29,06,,,1.20,0.64,1.01*17
$GNGSA,M,3,66,75,74,84,85,72,,,,,,,1.20,0.64,1.01*14
$GNZDA,060442.00,13,07,2018,00,00*72
$GNVTG,241.548,T,241.269,M,0.1447,N,0.2681,K,A*32

2018-07-13 08:04:44:214

$GPGGA,060443.00,3935.0913294,N,00023.8701341,W,1,16,0.64,55.3047,M,51.9152,M,,*74
$GNGSA,M,3,12,25,32,15,24,19,02,17,29,06,,,1.20,0.64,1.01*17
$GNGSA,M,3,66,75,74,84,85,72,,,,,,,1.20,0.64,1.01*14
$GNZDA,060443.00,13,07,2018,00,00*73
$GNVTG,265.212,T,264.934,M,0.0666,N,0.1234,K,A*31

2018-07-13 08:04:45:214

$GPGGA,060444.00,3935.0913226,N,00023.8701656,W,1,16,0.64,55.3093,M,51.9152,M,,*70
$GNGSA,M,3,12,25,32,15,24,19,02,17,29,06,,,1.20,0.64,1.01*17
$GNGSA,M,3,66,75,74,84,85,72,,,,,,,1.20,0.64,1.01*14
$GNZDA,060444.00,13,07,2018,00,00*74
$GNVTG,226.669,T,226.391,M,0.1040,N,0.1927,K,A*37

2018-07-13 08:04:46:218

$GPGGA,060445.00,3935.0912981,N,00023.8702342,W,1,16,0.64,55.3442,M,51.9152,M,,*7D
$GNGSA,M,3,12,25,32,15,24,19,02,17,29,06,,,1.20,0.64,1.01*17
$GNGSA,M,3,66,75,74,84,85,72,,,,,,,1.20,0.64,1.01*14
$GNZDA,060445.00,13,07,2018,00,00*75
$GNVTG,234.715,T,234.437,M,0.4703,N,0.8711,K,A*31

2018-07-13 08:04:47:216

$GPGGA,060446.00,3935.0912511,N,00023.8703544,W,1,16,0.64,55.3438,M,51.9152,M,,*77
$GNGSA,M,3,12,25,32,15,24,19,02,17,29,06,,,1.20,0.64,1.01*17
$GNGSA,M,3,66,75,74,84,85,72,,,,,,,1.20,0.64,1.01*14
$GNZDA,060446.00,13,07,2018,00,00*76
$GNVTG,246.196,T,245.918,M,0.3001,N,0.5558,K,A*3F

2018-07-13 08:04:48:215

$GPGGA,060447.00,3935.0912336,N,00023.8703526,W,1,17,0.62,55.3592,M,51.9152,M,,*77
$GNGSA,M,3,12,25,32,15,24,19,02,17,29,06,,,1.19,0.62,1.01*1B
$GNGSA,M,3,66,75,74,84,85,72,65,,,,,,1.19,0.62,1.01*1B
$GNZDA,060447.00,13,07,2018,00,00*77
$GNVTG,228.788,T,228.510,M,0.2870,N,0.5315,K,A*31

2018-07-13 08:04:49:215

$GPGGA,060448.00,3935.0911324,N,00023.8704996,W,1,15,0.68,55.4382,M,51.9152,M,,*70
$GNGSA,M,3,12,25,32,15,24,19,02,29,06,,,,1.31,0.68,1.12*1F
$GNGSA,M,3,66,75,74,84,85,72,,,,,,,1.31,0.68,1.12*1A
$GNZDA,060448.00,13,07,2018,00,00*78
$GNVTG,249.281,T,249.003,M,0.4065,N,0.7529,K,A*3B

2018-07-13 08:04:50:215

$GPGGA,060449.00,3935.0910815,N,00023.8705911,W,1,16,0.66,55.4214,M,51.9152,M,,*74
$GNGSA,M,3,12,25,32,15,24,19,02,29,06,,,,1.30,0.66,1.11*13
$GNGSA,M,3,66,75,74,84,85,72,65,,,,,,1.30,0.66,1.11*15
$GNZDA,060449.00,13,07,2018,00,00*79
$GNVTG,239.767,T,239.489,M,0.3088,N,0.5719,K,A*37

2018-07-13 08:04:51:214

$GPGGA,060450.00,3935.0910344,N,00023.8706799,W,1,16,0.66,55.4252,M,51.9151,M,,*7F
$GNGSA,M,3,12,25,32,15,24,19,02,29,06,,,,1.30,0.66,1.11*13
$GNGSA,M,3,66,75,74,84,85,72,65,,,,,,1.30,0.66,1.11*15
$GNZDA,060450.00,13,07,2018,00,00*71
$GNVTG,235.964,T,235.686,M,0.2296,N,0.4253,K,A*31

2018-07-13 08:04:52:215

$GPGGA,060451.00,3935.0910144,N,00023.8707596,W,1,16,0.66,55.3971,M,51.9151,M,,*7D
$GNGSA,M,3,12,25,32,15,24,19,02,29,06,,,,1.30,0.66,1.11*13
$GNGSA,M,3,66,75,74,84,85,72,65,,,,,,1.30,0.66,1.11*15
$GNZDA,060451.00,13,07,2018,00,00*70
$GNVTG,242.580,T,242.302,M,0.3556,N,0.6586,K,A*39

2018-07-13 08:04:53:214

$GPGGA,060452.00,3935.0909695,N,00023.8708666,W,1,16,0.66,55.3895,M,51.9151,M,,*75
$GNGSA,M,3,12,25,32,15,24,19,02,29,06,,,,1.30,0.66,1.11*13
$GNGSA,M,3,66,75,74,84,85,72,65,,,,,,1.30,0.66,1.11*15
$GNZDA,060452.00,13,07,2018,00,00*73
$GNVTG,253.155,T,252.877,M,0.3165,N,0.5862,K,A*3D

2018-07-13 08:04:54:215

$GPGGA,060453.00,3935.0909162,N,00023.8709682,W,1,17,0.62,55.4010,M,51.9151,M,,*77
$GNGSA,M,3,12,25,32,15,24,19,02,17,29,06,,,1.19,0.62,1.01*1B
$GNGSA,M,3,66,75,74,84,85,72,65,,,,,,1.19,0.62,1.01*1B
$GNZDA,060453.00,13,07,2018,00,00*72
$GNVTG,248.723,T,248.445,M,0.1691,N,0.3132,K,A*32

2018-07-13 08:04:55:215

$GPGGA,060454.00,3935.0909499,N,00023.8710634,W,1,17,0.62,55.3651,M,51.9151,M,,*70
$GNGSA,M,3,12,25,32,15,24,19,02,17,29,06,,,1.19,0.62,1.01*1B
$GNGSA,M,3,66,75,74,84,85,72,65,,,,,,1.19,0.62,1.01*1B
$GNZDA,060454.00,13,07,2018,00,00*75
$GNVTG,321.654,T,321.376,M,0.7341,N,1.3596,K,A*31

2018-07-13 08:04:56:216

$GPGGA,060455.00,3935.0908881,N,00023.8710949,W,1,17,0.62,55.5127,M,51.9151,M,,*70
$GNGSA,M,3,12,25,32,15,24,19,02,17,29,06,,,1.19,0.62,1.01*1B
$GNGSA,M,3,66,75,74,84,85,72,65,,,,,,1.19,0.62,1.01*1B
$GNZDA,060455.00,13,07,2018,00,00*74
$GNVTG,231.986,T,231.707,M,0.1612,N,0.2985,K,A*38

2018-07-13 08:04:57:216

$GPGGA,060456.00,3935.0908922,N,00023.8711366,W,1,17,0.62,55.4451,M,51.9151,M,,*78
$GNGSA,M,3,12,25,32,15,24,19,02,17,29,06,,,1.19,0.62,1.01*1B
$GNGSA,M,3,66,75,74,84,85,72,65,,,,,,1.19,0.62,1.01*1B
$GNZDA,060456.00,13,07,2018,00,00*77
$GNVTG,256.642,T,256.364,M,0.2590,N,0.4797,K,A*3F

2018-07-13 08:04:58:216

$GPGGA,060457.00,3935.0908616,N,00023.8712838,W,1,17,0.62,55.4058,M,51.9151,M,,*7F
$GNGSA,M,3,12,25,32,15,24,19,02,17,29,06,,,1.19,0.62,1.01*1B
$GNGSA,M,3,66,75,74,84,85,72,65,,,,,,1.19,0.62,1.01*1B
$GNZDA,060457.00,13,07,2018,00,00*76
$GNVTG,251.488,T,251.210,M,0.5794,N,1.0730,K,A*30

2018-07-13 08:04:59:216

$GPGGA,060458.00,3935.0908310,N,00023.8714106,W,1,17,0.62,55.3803,M,51.9151,M,,*70
$GNGSA,M,3,12,25,32,15,24,19,02,17,29,06,,,1.19,0.62,1.01*1B
$GNGSA,M,3,66,75,74,84,85,72,65,,,,,,1.19,0.62,1.01*1B
$GNZDA,060458.00,13,07,2018,00,00*79
$GNVTG,247.128,T,246.850,M,0.4136,N,0.7661,K,A*3C

2018-07-13 08:05:00:215

$GPGGA,060459.00,3935.0908127,N,00023.8714989,W,1,17,0.62,55.3572,M,51.9151,M,,*73
$GNGSA,M,3,12,25,32,15,24,19,02,17,29,06,,,1.19,0.62,1.01*1B
$GNGSA,M,3,66,75,74,84,85,72,65,,,,,,1.19,0.62,1.01*1B
$GNZDA,060459.00,13,07,2018,00,00*78
$GNVTG,060.560,T,060.282,M,0.1272,N,0.2355,K,A*31

2018-07-13 08:05:01:215

$GPGGA,060500.00,3935.0908155,N,00023.8715133,W,1,17,0.62,55.3873,M,51.9151,M,,*7F
$GNGSA,M,3,12,25,32,15,24,19,02,17,29,06,,,1.19,0.62,1.01*1B
$GNGSA,M,3,66,75,74,84,85,72,65,,,,,,1.19,0.62,1.01*1B
$GNZDA,060500.00,13,07,2018,00,00*75
$GNVTG,246.545,T,246.267,M,0.0766,N,0.1418,K,A*31

2018-07-13 08:05:02:215

$GPGGA,060501.00,3935.0908140,N,00023.8715312,W,1,17,0.62,55.4283,M,51.9151,M,,*79
$GNGSA,M,3,12,25,32,15,24,19,02,17,29,06,,,1.19,0.62,1.01*1B
$GNGSA,M,3,66,75,74,84,85,72,65,,,,,,1.19,0.62,1.01*1B
$GNZDA,060501.00,13,07,2018,00,00*74
$GNVTG,239.485,T,239.206,M,0.0963,N,0.1783,K,A*31

2018-07-13 08:05:03:216

$GPGGA,060502.00,3935.0907616,N,00023.8716952,W,1,17,0.62,55.4775,M,51.9151,M,,*70
$GNGSA,M,3,12,25,32,15,24,19,02,17,29,06,,,1.19,0.62,1.01*1B
$GNGSA,M,3,66,75,74,84,85,72,65,,,,,,1.19,0.62,1.01*1B
$GNZDA,060502.00,13,07,2018,00,00*77
$GNVTG,249.197,T,248.919,M,0.5341,N,0.9892,K,A*3B

2018-07-13 08:05:04:216

$GPGGA,060503.00,3935.0907179,N,00023.8718244,W,1,17,0.62,55.4708,M,51.9151,M,,*77
$GNGSA,M,3,12,25,32,15,24,19,02,17,29,06,,,1.19,0.62,1.01*1B
$GNGSA,M,3,66,75,74,84,85,72,65,,,,,,1.19,0.62,1.01*1B
$GNZDA,060503.00,13,07,2018,00,00*76
$GNVTG,232.700,T,232.422,M,0.2787,N,0.5161,K,A*37

2018-07-13 08:05:05:216

$GPGGA,060504.00,3935.0907072,N,00023.8718691,W,1,17,0.62,55.4579,M,51.9151,M,,*72
$GNGSA,M,3,12,25,32,15,24,19,02,17,29,06,,,1.19,0.62,1.01*1B
$GNGSA,M,3,66,75,74,84,85,72,65,,,,,,1.19,0.62,1.01*1B
$GNZDA,060504.00,13,07,2018,00,00*71
$GNVTG,060.714,T,060.436,M,0.2106,N,0.3901,K,A*30

2018-07-13 08:05:06:215

$GPGGA,060505.00,3935.0907174,N,00023.8718787,W,1,17,0.62,55.4419,M,51.9151,M,,*75
$GNGSA,M,3,12,25,32,15,24,19,02,17,29,06,,,1.19,0.62,1.01*1B
$GNGSA,M,3,66,75,74,84,85,72,65,,,,,,1.19,0.62,1.01*1B
$GNZDA,060505.00,13,07,2018,00,00*70
$GNVTG,354.403,T,354.124,M,0.0267,N,0.0495,K,A*36

2018-07-13 08:05:07:216

$GPGGA,060506.00,3935.0907733,N,00023.8719213,W,1,17,0.62,55.4262,M,51.9151,M,,*70
$GNGSA,M,3,12,25,32,15,24,19,02,17,29,06,,,1.19,0.62,1.01*1B
$GNGSA,M,3,66,75,74,84,85,72,65,,,,,,1.19,0.62,1.01*1B
$GNZDA,060506.00,13,07,2018,00,00*73
$GNVTG,328.225,T,327.946,M,0.4010,N,0.7427,K,A*3F

2018-07-13 08:05:08:216

$GPGGA,060507.00,3935.0907217,N,00023.8721771,W,1,17,0.62,55.3978,M,51.9151,M,,*7F
$GNGSA,M,3,12,25,32,15,24,19,02,17,29,06,,,1.19,0.62,1.01*1B
$GNGSA,M,3,66,75,74,84,85,72,65,,,,,,1.19,0.62,1.01*1B
$GNZDA,060507.00,13,07,2018,00,00*72
$GNVTG,257.739,T,257.460,M,0.7751,N,1.4356,K,A*33

2018-07-13 08:05:09:216

$GPGGA,060508.00,3935.0907086,N,00023.8722649,W,1,17,0.62,55.3542,M,51.9151,M,,*76
$GNGSA,M,3,12,25,32,15,24,19,02,17,29,06,,,1.19,0.62,1.01*1B
$GNGSA,M,3,66,75,74,84,85,72,65,,,,,,1.19,0.62,1.01*1B
$GNZDA,060508.00,13,07,2018,00,00*7D
$GNVTG,263.528,T,263.249,M,0.1456,N,0.2697,K,A*31

2018-07-13 08:05:10:215

$GPGGA,060509.00,3935.0907284,N,00023.8722527,W,1,17,0.62,55.2955,M,51.9151,M,,*77
$GNGSA,M,3,12,25,32,15,24,19,02,17,29,06,,,1.19,0.62,1.01*1B
$GNGSA,M,3,66,75,74,84,85,72,65,,,,,,1.19,0.62,1.01*1B
$GNZDA,060509.00,13,07,2018,00,00*7C
$GNVTG,288.188,T,287.909,M,0.0481,N,0.0891,K,A*3E

2018-07-13 08:05:11:220

$GPGGA,060510.00,3935.0907419,N,00023.8722440,W,1,17,0.62,55.2587,M,51.9151,M,,*7E
$GNGSA,M,3,12,25,32,15,24,19,02,17,29,06,,,1.19,0.62,1.01*1B
$GNGSA,M,3,66,75,74,84,85,72,65,,,,,,1.19,0.62,1.01*1B
$GNZDA,060510.00,13,07,2018,00,00*74
$GNVTG,002.894,T,002.615,M,0.0549,N,0.1016,K,A*34

2018-07-13 08:05:12:219

$GPGGA,060511.00,3935.0907358,N,00023.8722859,W,1,17,0.62,55.2546,M,51.9151,M,,*74
$GNGSA,M,3,12,25,32,15,24,19,02,17,29,06,,,1.19,0.62,1.01*1B
$GNGSA,M,3,66,75,74,84,85,72,65,,,,,,1.19,0.62,1.01*1B
$GNZDA,060511.00,13,07,2018,00,00*75
$GNVTG,253.652,T,253.373,M,0.4654,N,0.8619,K,A*3E

2018-07-13 08:05:13:217

$GPGGA,060512.00,3935.0906734,N,00023.8723463,W,1,16,0.68,55.3531,M,51.9151,M,,*76
$GNGSA,M,3,12,25,32,15,24,19,02,17,29,06,,,1.27,0.68,1.07*1A
$GNGSA,M,3,75,74,84,85,72,65,,,,,,,1.27,0.68,1.07*1A
$GNZDA,060512.00,13,07,2018,00,00*76
$GNVTG,260.638,T,260.360,M,0.2717,N,0.5032,K,A*32

2018-07-13 08:05:14:216

$GPGGA,060513.00,3935.0905834,N,00023.8724200,W,1,16,0.68,55.6492,M,51.9151,M,,*72
$GNGSA,M,3,12,25,32,15,24,19,02,17,29,06,,,1.27,0.68,1.07*1A
$GNGSA,M,3,75,74,84,85,72,65,,,,,,,1.27,0.68,1.07*1A
$GNZDA,060513.00,13,07,2018,00,00*77
$GNVTG,301.812,T,301.534,M,0.0496,N,0.0919,K,A*3E

2018-07-13 08:05:15:217

$GPGGA,060514.00,3935.0905665,N,00023.8724600,W,1,16,0.68,55.6687,M,51.9151,M,,*7D
$GNGSA,M,3,12,25,32,15,24,19,02,17,29,06,,,1.27,0.68,1.07*1A
$GNGSA,M,3,75,74,84,85,72,65,,,,,,,1.27,0.68,1.07*1A
$GNZDA,060514.00,13,07,2018,00,00*70
$GNVTG,040.916,T,040.637,M,0.0666,N,0.1234,K,A*33

2018-07-13 08:05:16:215

$GPGGA,060515.00,3935.0905659,N,00023.8726176,W,1,16,0.68,55.5109,M,51.9151,M,,*75
$GNGSA,M,3,12,25,32,15,24,19,02,17,29,06,,,1.27,0.68,1.07*1A
$GNGSA,M,3,75,74,84,85,72,65,,,,,,,1.27,0.68,1.07*1A
$GNZDA,060515.00,13,07,2018,00,00*71
$GNVTG,255.975,T,255.697,M,0.8161,N,1.5114,K,A*30

2018-07-13 08:05:17:216

$GPGGA,060516.00,3935.0905134,N,00023.8727517,W,1,16,0.68,55.5593,M,51.9151,M,,*7F
$GNGSA,M,3,12,25,32,15,24,19,02,17,29,06,,,1.27,0.68,1.07*1A
$GNGSA,M,3,75,74,84,85,72,65,,,,,,,1.27,0.68,1.07*1A
$GNZDA,060516.00,13,07,2018,00,00*72
$GNVTG,070.040,T,069.762,M,0.2173,N,0.4024,K,A*37

2018-07-13 08:05:18:216

$GPGGA,060517.00,3935.0906014,N,00023.8729772,W,1,17,0.62,55.2632,M,51.9151,M,,*75
$GNGSA,M,3,12,25,32,15,24,19,02,17,29,06,,,1.19,0.62,1.01*1B
$GNGSA,M,3,66,75,74,84,85,72,65,,,,,,1.19,0.62,1.01*1B
$GNZDA,060517.00,13,07,2018,00,00*73
$GNVTG,252.703,T,252.425,M,0.4797,N,0.8884,K,A*3B

2018-07-13 08:05:19:216

$GPGGA,060518.00,3935.0905105,N,00023.8730843,W,1,17,0.62,55.4299,M,51.9151,M,,*7E
$GNGSA,M,3,12,25,32,15,24,19,02,17,29,06,,,1.19,0.62,1.01*1B
$GNGSA,M,3,66,75,74,84,85,72,65,,,,,,1.19,0.62,1.01*1B
$GNZDA,060518.00,13,07,2018,00,00*7C
$GNVTG,252.916,T,252.638,M,0.3959,N,0.7332,K,A*3D

2018-07-13 08:05:20:216

$GPGGA,060519.00,3935.0904963,N,00023.8731615,W,1,17,0.62,55.4195,M,51.9151,M,,*75
$GNGSA,M,3,12,25,32,15,24,19,02,17,29,06,,,1.19,0.62,1.01*1B
$GNGSA,M,3,66,75,74,84,85,72,65,,,,,,1.19,0.62,1.01*1B
$GNZDA,060519.00,13,07,2018,00,00*7D
$GNVTG,090.135,T,089.857,M,0.0924,N,0.1711,K,A*31

2018-07-13 08:05:21:217

$GPGGA,060520.00,3935.0903858,N,00023.8732592,W,1,16,0.68,55.6046,M,51.9151,M,,*78
$GNGSA,M,3,12,25,32,15,24,19,02,17,29,06,,,1.27,0.68,1.07*1A
$GNGSA,M,3,75,74,84,85,72,65,,,,,,,1.27,0.68,1.07*1A
$GNZDA,060520.00,13,07,2018,00,00*77
$GNVTG,244.539,T,244.261,M,0.7832,N,1.4505,K,A*3C

2018-07-13 08:05:22:217

$GPGGA,060521.00,3935.0903484,N,00023.8734311,W,1,16,0.68,55.6268,M,51.9151,M,,*71
$GNGSA,M,3,12,25,32,15,24,19,02,17,29,06,,,1.27,0.68,1.07*1A
$GNGSA,M,3,75,74,84,85,72,65,,,,,,,1.27,0.68,1.07*1A
$GNZDA,060521.00,13,07,2018,00,00*76
$GNVTG,258.190,T,257.912,M,0.2167,N,0.4013,K,A*34

2018-07-13 08:05:23:217

$GPGGA,060522.00,3935.0903171,N,00023.8735074,W,1,16,0.68,55.6861,M,51.9151,M,,*7F
$GNGSA,M,3,12,25,32,15,24,19,02,17,29,06,,,1.27,0.68,1.07*1A
$GNGSA,M,3,75,74,84,85,72,65,,,,,,,1.27,0.68,1.07*1A
$GNZDA,060522.00,13,07,2018,00,00*75
$GNVTG,075.448,T,075.170,M,0.1565,N,0.2899,K,A*3E

2018-07-13 08:05:24:216

$GPGGA,060523.00,3935.0902985,N,00023.8735445,W,1,16,0.68,55.7278,M,51.9151,M,,*79
$GNGSA,M,3,12,25,32,15,24,19,02,17,29,06,,,1.27,0.68,1.07*1A
$GNGSA,M,3,75,74,84,85,72,65,,,,,,,1.27,0.68,1.07*1A
$GNZDA,060523.00,13,07,2018,00,00*74
$GNVTG,259.877,T,259.599,M,0.4552,N,0.8431,K,A*38

2018-07-13 08:05:25:216

$GPGGA,060524.00,3935.0902342,N,00023.8737738,W,1,16,0.68,55.7740,M,51.9151,M,,*7A
$GNGSA,M,3,12,25,32,15,24,19,02,17,29,06,,,1.27,0.68,1.07*1A
$GNGSA,M,3,75,74,84,85,72,65,,,,,,,1.27,0.68,1.07*1A
$GNZDA,060524.00,13,07,2018,00,00*73
$GNVTG,255.915,T,255.637,M,0.4523,N,0.8377,K,A*39

2018-07-13 08:05:26:217

$GPGGA,060525.00,3935.0902499,N,00023.8739547,W,1,17,0.62,55.6680,M,51.9151,M,,*79
$GNGSA,M,3,12,25,32,15,24,19,02,17,29,06,,,1.19,0.62,1.01*1B
$GNGSA,M,3,75,74,84,85,72,66,65,,,,,,1.19,0.62,1.01*1B
$GNZDA,060525.00,13,07,2018,00,00*72
$GNVTG,259.281,T,259.003,M,0.0945,N,0.1749,K,A*36

2018-07-13 08:05:27:216

$GPGGA,060526.00,3935.0902363,N,00023.8739501,W,1,17,0.62,55.6753,M,51.9151,M,,*75
$GNGSA,M,3,12,25,32,15,24,19,02,17,29,06,,,1.19,0.62,1.01*1B
$GNGSA,M,3,75,74,84,85,72,66,65,,,,,,1.19,0.62,1.01*1B
$GNZDA,060526.00,13,07,2018,00,00*71
$GNVTG,254.091,T,253.812,M,0.0274,N,0.0507,K,A*3A

2018-07-13 08:05:28:217

$GPGGA,060527.00,3935.0901966,N,00023.8740322,W,1,17,0.62,55.7192,M,51.9151,M,,*7B
$GNGSA,M,3,12,25,32,15,24,19,02,17,29,06,,,1.19,0.62,1.01*1B
$GNGSA,M,3,75,74,84,85,72,66,65,,,,,,1.19,0.62,1.01*1B
$GNZDA,060527.00,13,07,2018,00,00*70
$GNVTG,251.473,T,251.195,M,0.5590,N,1.0352,K,A*3C

2018-07-13 08:05:29:217

$GPGGA,060528.00,3935.0901433,N,00023.8741432,W,1,17,0.62,55.7619,M,51.9151,M,,*7A
$GNGSA,M,3,12,25,32,15,24,19,02,17,29,06,,,1.19,0.62,1.01*1B
$GNGSA,M,3,75,74,84,85,72,66,65,,,,,,1.19,0.62,1.01*1B
$GNZDA,060528.00,13,07,2018,00,00*7F
$GNVTG,083.043,T,082.765,M,0.1070,N,0.1983,K,A*3A

2018-07-13 08:05:30:217

$GPGGA,060529.00,3935.0901358,N,00023.8741497,W,1,17,0.62,55.7851,M,51.9151,M,,*7C
$GNGSA,M,3,12,25,32,15,24,19,02,17,29,06,,,1.19,0.62,1.01*1B
$GNGSA,M,3,75,74,84,85,72,66,65,,,,,,1.19,0.62,1.01*1B
$GNZDA,060529.00,13,07,2018,00,00*7E
$GNVTG,243.327,T,243.049,M,0.1539,N,0.2850,K,A*37

2018-07-13 08:05:31:216

$GPGGA,060530.00,3935.0900545,N,00023.8741765,W,1,16,0.68,55.9697,M,51.9151,M,,*70
$GNGSA,M,3,12,25,32,15,24,19,02,17,29,06,,,1.27,0.68,1.07*1A
$GNGSA,M,3,75,74,84,85,72,65,,,,,,,1.27,0.68,1.07*1A
$GNZDA,060530.00,13,07,2018,00,00*76
$GNVTG,091.888,T,091.610,M,0.2609,N,0.4832,K,A*32

2018-07-13 08:05:32:217

$GPGGA,060531.00,3935.0900493,N,00023.8741760,W,1,16,0.68,55.9973,M,51.9151,M,,*7B
$GNGSA,M,3,12,25,32,15,24,19,02,17,29,06,,,1.27,0.68,1.07*1A
$GNGSA,M,3,75,74,84,85,72,65,,,,,,,1.27,0.68,1.07*1A
$GNZDA,060531.00,13,07,2018,00,00*77
$GNVTG,106.299,T,106.021,M,0.0415,N,0.0768,K,A*35

2018-07-13 08:05:33:217

$GPGGA,060532.00,3935.0900386,N,00023.8742350,W,1,16,0.68,56.0426,M,51.9151,M,,*78
$GNGSA,M,3,12,25,32,15,24,19,02,17,29,06,,,1.27,0.68,1.07*1A
$GNGSA,M,3,75,74,84,85,72,65,,,,,,,1.27,0.68,1.07*1A
$GNZDA,060532.00,13,07,2018,00,00*74
$GNVTG,246.195,T,245.917,M,0.4285,N,0.7936,K,A*3C

2018-07-13 08:05:34:217

$GPGGA,060533.00,3935.0899741,N,00023.8744790,W,1,16,0.68,56.0291,M,51.9151,M,,*73
$GNGSA,M,3,12,25,32,15,24,19,02,17,29,06,,,1.27,0.68,1.07*1A
$GNGSA,M,3,75,74,84,85,72,65,,,,,,,1.27,0.68,1.07*1A
$GNZDA,060533.00,13,07,2018,00,00*75
$GNVTG,254.999,T,254.720,M,0.4299,N,0.7962,K,A*3D

2018-07-13 08:05:35:217

$GPGGA,060534.00,3935.0899763,N,00023.8746637,W,1,16,0.68,55.9203,M,51.9151,M,,*7B
$GNGSA,M,3,12,25,32,15,24,19,02,17,29,06,,,1.27,0.68,1.07*1A
$GNGSA,M,3,75,74,84,85,72,65,,,,,,,1.27,0.68,1.07*1A
$GNZDA,060534.00,13,07,2018,00,00*72
$GNVTG,255.363,T,255.085,M,0.2751,N,0.5095,K,A*3E

2018-07-13 08:05:36:217

$GPGGA,060535.00,3935.0899216,N,00023.8746450,W,1,16,0.68,56.0261,M,51.9151,M,,*70
$GNGSA,M,3,12,25,32,15,24,19,02,17,29,06,,,1.27,0.68,1.07*1A
$GNGSA,M,3,75,74,84,85,72,65,,,,,,,1.27,0.68,1.07*1A
$GNZDA,060535.00,13,07,2018,00,00*73
$GNVTG,074.227,T,073.949,M,0.0549,N,0.1016,K,A*37

2018-07-13 08:05:37:220

$GPGGA,060536.00,3935.0898880,N,00023.8746079,W,1,16,0.68,56.1159,M,51.9151,M,,*71
$GNGSA,M,3,12,25,32,15,24,19,02,17,29,06,,,1.27,0.68,1.07*1A
$GNGSA,M,3,75,74,84,85,72,65,,,,,,,1.27,0.68,1.07*1A
$GNZDA,060536.00,13,07,2018,00,00*70
$GNVTG,213.095,T,212.817,M,0.0742,N,0.1373,K,A*39

2018-07-13 08:05:38:220

$GPGGA,060537.00,3935.0898430,N,00023.8746784,W,1,16,0.68,56.2071,M,51.9151,M,,*7A
$GNGSA,M,3,12,25,32,15,24,19,02,17,29,06,,,1.27,0.68,1.07*1A
$GNGSA,M,3,75,74,84,85,72,65,,,,,,,1.27,0.68,1.07*1A
$GNZDA,060537.00,13,07,2018,00,00*71
$GNVTG,272.914,T,272.636,M,0.5557,N,1.0291,K,A*3B

2018-07-13 08:05:39:217

$GPGGA,060538.00,3935.0897135,N,00023.8746633,W,1,16,0.68,56.4726,M,51.9151,M,,*74
$GNGSA,M,3,12,25,32,15,24,19,02,17,29,06,,,1.27,0.68,1.07*1A
$GNGSA,M,3,75,74,84,85,72,65,,,,,,,1.27,0.68,1.07*1A
$GNZDA,060538.00,13,07,2018,00,00*7E
$GNVTG,254.392,T,254.114,M,0.4623,N,0.8561,K,A*38

2018-07-13 08:05:40:217

$GPGGA,060539.00,3935.0894455,N,00023.8743863,W,1,16,0.68,57.1130,M,51.9151,M,,*7E
$GNGSA,M,3,12,25,32,15,24,19,02,17,29,06,,,1.27,0.68,1.07*1A
$GNGSA,M,3,75,74,84,85,72,65,,,,,,,1.27,0.68,1.07*1A
$GNZDA,060539.00,13,07,2018,00,00*7F
$GNVTG,075.453,T,075.174,M,0.2011,N,0.3724,K,A*3D

2018-07-13 08:05:41:218

$GPGGA,060540.00,3935.0893468,N,00023.8742240,W,1,16,0.68,57.3414,M,51.9151,M,,*72
$GNGSA,M,3,12,25,32,15,24,19,02,17,29,06,,,1.27,0.68,1.07*1A
$GNGSA,M,3,75,74,84,85,72,65,,,,,,,1.27,0.68,1.07*1A
$GNZDA,060540.00,13,07,2018,00,00*71
$GNVTG,084.510,T,084.231,M,0.0151,N,0.0280,K,A*36

2018-07-13 08:05:42:217

$GPGGA,060541.00,3935.0893549,N,00023.8743564,W,1,16,0.68,57.2410,M,51.9151,M,,*74
$GNGSA,M,3,12,25,32,15,24,19,02,17,29,06,,,1.27,0.68,1.07*1A
$GNGSA,M,3,75,74,84,85,72,65,,,,,,,1.27,0.68,1.07*1A
$GNZDA,060541.00,13,07,2018,00,00*70
$GNVTG,237.002,T,236.724,M,0.7007,N,1.2977,K,A*35

2018-07-13 08:05:43:217

$GPGGA,060542.00,3935.0895275,N,00023.8748921,W,1,15,0.79,56.6499,M,51.9151,M,,*78
$GNGSA,M,3,12,25,15,24,19,02,17,29,06,,,,1.36,0.79,1.11*1C
$GNGSA,M,3,75,74,84,85,72,65,,,,,,,1.36,0.79,1.11*1D
$GNZDA,060542.00,13,07,2018,00,00*73
$GNVTG,253.264,T,252.986,M,0.3964,N,0.7342,K,A*31

2018-07-13 08:05:44:218

$GPGGA,060543.00,3935.0895109,N,00023.8749357,W,1,15,0.79,56.6938,M,51.9151,M,,*7D
$GNGSA,M,3,12,25,15,24,19,02,17,29,06,,,,1.36,0.79,1.11*1C
$GNGSA,M,3,75,74,84,85,72,65,,,,,,,1.36,0.79,1.11*1D
$GNZDA,060543.00,13,07,2018,00,00*72
$GNVTG,342.877,T,342.599,M,0.0539,N,0.0998,K,A*37

2018-07-13 08:05:45:218

$GPGGA,060544.00,3935.0895253,N,00023.8749413,W,1,15,0.79,56.7630,M,51.9151,M,,*77
$GNGSA,M,3,12,25,15,24,19,02,17,29,06,,,,1.36,0.79,1.11*1C
$GNGSA,M,3,75,74,84,85,72,65,,,,,,,1.36,0.79,1.11*1D
$GNZDA,060544.00,13,07,2018,00,00*75
$GNVTG,266.500,T,266.222,M,0.0628,N,0.1162,K,A*32

2018-07-13 08:05:46:217

$GPGGA,060545.00,3935.0891665,N,00023.8747201,W,1,15,0.79,57.8754,M,51.9151,M,,*75
$GNGSA,M,3,12,25,15,24,19,02,17,29,06,,,,1.36,0.79,1.11*1C
$GNGSA,M,3,75,74,84,85,72,65,,,,,,,1.36,0.79,1.11*1D
$GNZDA,060545.00,13,07,2018,00,00*74
$GNVTG,254.439,T,254.161,M,0.2363,N,0.4376,K,A*37

2018-07-13 08:05:47:217

$GPGGA,060546.00,3935.0895741,N,00023.8751466,W,1,15,0.79,56.5450,M,51.9151,M,,*7E
$GNGSA,M,3,12,25,15,24,19,02,17,29,06,,,,1.36,0.79,1.11*1C
$GNGSA,M,3,75,74,84,85,72,65,,,,,,,1.36,0.79,1.11*1D
$GNZDA,060546.00,13,07,2018,00,00*77
$GNVTG,266.603,T,266.325,M,0.2064,N,0.3823,K,A*36

2018-07-13 08:05:48:218

$GPGGA,060547.00,3935.0895619,N,00023.8752099,W,1,15,0.79,56.5441,M,51.9151,M,,*74
$GNGSA,M,3,12,25,15,24,19,02,17,29,06,,,,1.36,0.79,1.11*1C
$GNGSA,M,3,75,74,84,85,72,65,,,,,,,1.36,0.79,1.11*1D
$GNZDA,060547.00,13,07,2018,00,00*76
$GNVTG,250.457,T,250.178,M,0.1564,N,0.2897,K,A*37

2018-07-13 08:05:49:218

$GPGGA,060548.00,3935.0897289,N,00023.8754343,W,1,17,0.62,56.1318,M,51.9151,M,,*71
$GNGSA,M,3,12,25,32,15,24,19,02,17,29,06,,,1.19,0.62,1.01*1B
$GNGSA,M,3,75,74,84,85,72,66,65,,,,,,1.19,0.62,1.01*1B
$GNZDA,060548.00,13,07,2018,00,00*79
$GNVTG,294.192,T,293.913,M,0.3439,N,0.6370,K,A*34

2018-07-13 08:05:50:218

$GPGGA,060549.00,3935.0897660,N,00023.8755107,W,1,17,0.62,56.0750,M,51.9151,M,,*79
$GNGSA,M,3,12,25,32,15,24,19,02,17,29,06,,,1.19,0.62,1.01*1B
$GNGSA,M,3,75,74,84,85,72,66,65,,,,,,1.19,0.62,1.01*1B
$GNZDA,060549.00,13,07,2018,00,00*78
$GNVTG,320.910,T,320.632,M,0.2388,N,0.4423,K,A*32

2018-07-13 08:05:51:218

$GPGGA,060550.00,3935.0895448,N,00023.8757022,W,1,17,0.62,56.8056,M,51.9151,M,,*76
$GNGSA,M,3,12,25,32,15,24,19,02,17,29,06,,,1.19,0.62,1.01*1B
$GNGSA,M,3,75,74,84,85,72,66,65,,,,,,1.19,0.62,1.01*1B
$GNZDA,060550.00,13,07,2018,00,00*70
$GNVTG,224.973,T,224.695,M,0.0964,N,0.1785,K,A*3A

2018-07-13 08:05:52:218

$GPGGA,060551.00,3935.0895482,N,00023.8757046,W,1,17,0.62,56.7944,M,51.9151,M,,*76
$GNGSA,M,3,12,25,32,15,24,19,02,17,29,06,,,1.19,0.62,1.01*1B
$GNGSA,M,3,75,74,84,85,72,66,65,,,,,,1.19,0.62,1.01*1B
$GNZDA,060551.00,13,07,2018,00,00*71
$GNVTG,269.927,T,269.649,M,0.0209,N,0.0387,K,A*3D

2018-07-13 08:05:53:218

$GPGGA,060552.00,3935.0895456,N,00023.8757227,W,1,17,0.62,56.7933,M,51.9151,M,,*79
$GNGSA,M,3,12,25,32,15,24,19,02,17,29,06,,,1.19,0.62,1.01*1B
$GNGSA,M,3,75,74,84,85,72,66,65,,,,,,1.19,0.62,1.01*1B
$GNZDA,060552.00,13,07,2018,00,00*72
$GNVTG,269.563,T,269.284,M,0.2611,N,0.4836,K,A*3E

2018-07-13 08:05:54:218

$GPGGA,060553.00,3935.0895462,N,00023.8759687,W,1,17,0.60,56.6460,M,51.9151,M,,*77
$GNGSA,M,3,12,25,32,15,24,02,17,29,06,,,,1.15,0.60,0.97*13
$GNGSA,M,3,75,74,84,85,72,76,66,65,,,,,1.15,0.60,0.97*1A
$GNZDA,060553.00,13,07,2018,00,00*73
$GNVTG,085.504,T,085.226,M,0.2200,N,0.4075,K,A*3C

2018-07-13 08:05:55:218

$GPGGA,060554.00,3935.0896208,N,00023.8759583,W,1,18,0.59,56.5507,M,51.9151,M,,*78
$GNGSA,M,3,12,25,32,15,24,19,02,17,29,06,,,1.14,0.59,0.97*10
$GNGSA,M,3,75,74,84,85,72,76,66,65,,,,,1.14,0.59,0.97*11
$GNZDA,060554.00,13,07,2018,00,00*74
$GNVTG,169.569,T,169.290,M,0.0231,N,0.0428,K,A*32

2018-07-13 08:05:56:219

$GPGGA,060555.00,3935.0896175,N,00023.8761376,W,1,18,0.59,56.5147,M,51.9151,M,,*77
$GNGSA,M,3,12,25,32,15,24,19,02,17,29,06,,,1.14,0.59,0.97*10
$GNGSA,M,3,75,74,84,85,72,76,66,65,,,,,1.14,0.59,0.97*11
$GNZDA,060555.00,13,07,2018,00,00*75
$GNVTG,269.541,T,269.263,M,0.7227,N,1.3384,K,A*37

2018-07-13 08:05:57:218

$GPGGA,060556.00,3935.0895288,N,00023.8763500,W,1,16,0.64,56.5972,M,51.9151,M,,*7D
$GNGSA,M,3,12,25,32,15,24,19,02,17,29,06,,,1.18,0.64,1.00*1D
$GNGSA,M,3,75,74,84,85,72,76,,,,,,,1.18,0.64,1.00*1F
$GNZDA,060556.00,13,07,2018,00,00*76
$GNVTG,250.826,T,250.548,M,0.4259,N,0.7887,K,A*32

2018-07-13 08:05:58:218

$GPGGA,060557.00,3935.0894853,N,00023.8763544,W,1,16,0.68,56.7713,M,51.9151,M,,*76
$GNGSA,M,3,12,25,32,15,24,19,02,17,29,06,,,1.27,0.68,1.07*1A
$GNGSA,M,3,75,74,84,85,72,65,,,,,,,1.27,0.68,1.07*1A
$GNZDA,060557.00,13,07,2018,00,00*77
$GNVTG,259.737,T,259.459,M,0.8222,N,1.5227,K,A*3F

2018-07-13 08:05:59:218

$GPGGA,060558.00,3935.0894890,N,00023.8767436,W,1,17,0.60,56.5632,M,51.9151,M,,*7F
$GNGSA,M,3,12,25,32,15,24,19,02,17,29,06,,,1.15,0.60,0.98*14
$GNGSA,M,3,75,74,84,85,72,76,66,,,,,,1.15,0.60,0.98*16
$GNZDA,060558.00,13,07,2018,00,00*78
$GNVTG,249.565,T,249.287,M,0.2068,N,0.3829,K,A*3A

2018-07-13 08:06:00:219

$GPGGA,060559.00,3935.0894659,N,00023.8768565,W,1,17,0.60,56.5615,M,51.9151,M,,*78
$GNGSA,M,3,12,25,32,15,24,19,02,17,29,06,,,1.15,0.60,0.98*14
$GNGSA,M,3,75,74,84,85,72,76,66,,,,,,1.15,0.60,0.98*16
$GNZDA,060559.00,13,07,2018,00,00*79
$GNVTG,256.989,T,256.711,M,0.2851,N,0.5280,K,A*33

2018-07-13 08:06:01:218

$GPGGA,060600.00,3935.0894612,N,00023.8770380,W,1,17,0.60,56.4254,M,51.9151,M,,*7C
$GNGSA,M,3,12,25,32,15,24,19,02,17,29,06,,,1.15,0.60,0.98*14
$GNGSA,M,3,75,74,84,85,72,76,66,,,,,,1.15,0.60,0.98*16
$GNZDA,060600.00,13,07,2018,00,00*76
$GNVTG,266.813,T,266.535,M,0.6343,N,1.1748,K,A*3D

2018-07-13 08:06:02:218

$GPGGA,060601.00,3935.0894380,N,00023.8771517,W,1,16,0.64,56.4706,M,51.9151,M,,*7D
$GNGSA,M,3,12,25,32,15,24,19,02,17,29,06,,,1.20,0.64,1.01*17
$GNGSA,M,3,75,74,84,85,72,66,,,,,,,1.20,0.64,1.01*14
$GNZDA,060601.00,13,07,2018,00,00*77
$GNVTG,247.433,T,247.155,M,0.3838,N,0.7109,K,A*37

2018-07-13 08:06:03:222

$GPGGA,060602.00,3935.0895475,N,00023.8771716,W,1,16,0.64,56.3395,M,51.9151,M,,*78
$GNGSA,M,3,12,25,32,15,24,19,02,17,29,06,,,1.20,0.64,1.01*17
$GNGSA,M,3,75,74,84,85,72,66,,,,,,,1.20,0.64,1.01*14
$GNZDA,060602.00,13,07,2018,00,00*74
$GNVTG,261.885,T,261.607,M,0.4800,N,0.8890,K,A*3C

2018-07-13 08:06:04:221

$GPGGA,060603.00,3935.0894598,N,00023.8771753,W,1,14,0.77,56.4820,M,51.9151,M,,*79
$GNGSA,M,3,12,25,32,15,24,19,02,17,29,06,,,1.41,0.77,1.18*1A
$GNGSA,M,3,75,74,84,85,,,,,,,,,1.41,0.77,1.18*1C
$GNZDA,060603.00,13,07,2018,00,00*75
$GNVTG,103.229,T,102.951,M,0.0625,N,0.1157,K,A*3B

2018-07-13 08:06:05:219

$GPGGA,060604.00,3935.0894534,N,00023.8772841,W,1,14,0.77,56.4671,M,51.9151,M,,*7D
$GNGSA,M,3,12,25,32,15,24,19,02,17,29,06,,,1.41,0.77,1.18*1A
$GNGSA,M,3,75,74,84,85,,,,,,,,,1.41,0.77,1.18*1C
$GNZDA,060604.00,13,07,2018,00,00*72
$GNVTG,256.809,T,256.531,M,0.4386,N,0.8124,K,A*3D

2018-07-13 08:06:06:218

$GPGGA,060605.00,3935.0894078,N,00023.8775180,W,1,14,0.77,56.4560,M,51.9151,M,,*71
$GNGSA,M,3,12,25,32,15,24,19,02,17,29,06,,,1.41,0.77,1.18*1A
$GNGSA,M,3,75,74,84,85,,,,,,,,,1.41,0.77,1.18*1C
$GNZDA,060605.00,13,07,2018,00,00*73
$GNVTG,255.733,T,255.454,M,0.4015,N,0.7435,K,A*3A

2018-07-13 08:06:07:218

$GPGGA,060606.00,3935.0893759,N,00023.8776373,W,1,14,0.77,56.4173,M,51.9151,M,,*7A
$GNGSA,M,3,12,25,32,15,24,19,02,17,29,06,,,1.41,0.77,1.18*1A
$GNGSA,M,3,75,74,84,85,,,,,,,,,1.41,0.77,1.18*1C
$GNZDA,060606.00,13,07,2018,00,00*70
$GNVTG,260.606,T,260.328,M,0.3783,N,0.7006,K,A*3A

2018-07-13 08:06:08:218

$GPGGA,060607.00,3935.0893356,N,00023.8778488,W,1,13,0.80,56.3913,M,51.9151,M,,*7B
$GNGSA,M,3,12,25,32,15,24,02,17,29,06,,,,1.43,0.80,1.18*18
$GNGSA,M,3,75,74,84,85,,,,,,,,,1.43,0.80,1.18*16
$GNZDA,060607.00,13,07,2018,00,00*71
$GNVTG,260.551,T,260.272,M,0.5311,N,0.9835,K,A*3A

2018-07-13 08:06:09:219

$GPGGA,060608.00,3935.0892796,N,00023.8779368,W,1,13,0.80,56.4865,M,51.9151,M,,*72
$GNGSA,M,3,12,25,32,15,24,02,17,29,06,,,,1.43,0.80,1.18*18
$GNGSA,M,3,75,74,84,85,,,,,,,,,1.43,0.80,1.18*16
$GNZDA,060608.00,13,07,2018,00,00*7E
$GNVTG,265.863,T,265.584,M,0.0433,N,0.0803,K,A*36

2018-07-13 08:06:10:218

$GPGGA,060609.00,3935.0892923,N,00023.8779538,W,1,13,0.80,56.4625,M,51.9151,M,,*7A
$GNGSA,M,3,12,25,32,15,24,02,17,29,06,,,,1.43,0.80,1.18*18
$GNGSA,M,3,75,74,84,85,,,,,,,,,1.43,0.80,1.18*16
$GNZDA,060609.00,13,07,2018,00,00*7F
$GNVTG,003.264,T,002.986,M,0.0568,N,0.1052,K,A*36

2018-07-13 08:06:11:219

$GPGGA,060610.00,3935.0892985,N,00023.8779438,W,1,13,0.80,56.4818,M,51.9151,M,,*7F
$GNGSA,M,3,12,25,32,15,24,02,17,29,06,,,,1.43,0.80,1.18*18
$GNGSA,M,3,75,74,84,85,,,,,,,,,1.43,0.80,1.18*16
$GNZDA,060610.00,13,07,2018,00,00*77
$GNVTG,170.795,T,170.517,M,0.0283,N,0.0523,K,A*38

2018-07-13 08:06:12:219

$GPGGA,060611.00,3935.0892738,N,00023.8780312,W,1,13,0.80,56.5256,M,51.9151,M,,*7E
$GNGSA,M,3,12,25,32,15,24,02,17,29,06,,,,1.43,0.80,1.18*18
$GNGSA,M,3,75,74,84,85,,,,,,,,,1.43,0.80,1.18*16
$GNZDA,060611.00,13,07,2018,00,00*76
$GNVTG,260.040,T,259.762,M,0.6336,N,1.1734,K,A*30

2018-07-13 08:06:13:219

$GPGGA,060612.00,3935.0891401,N,00023.8781875,W,1,13,0.80,56.7996,M,51.9151,M,,*79
$GNGSA,M,3,12,25,32,15,24,02,17,29,06,,,,1.43,0.80,1.18*18
$GNGSA,M,3,75,74,84,85,,,,,,,,,1.43,0.80,1.18*16
$GNZDA,060612.00,13,07,2018,00,00*75
$GNVTG,239.271,T,238.992,M,0.5581,N,1.0335,K,A*37

2018-07-13 08:06:14:219

$GPGGA,060613.00,3935.0893354,N,00023.8785451,W,1,13,0.80,56.2149,M,51.9151,M,,*7C
$GNGSA,M,3,12,25,32,15,24,02,17,29,06,,,,1.43,0.80,1.18*18
$GNGSA,M,3,75,74,84,85,,,,,,,,,1.43,0.80,1.18*16
$GNZDA,060613.00,13,07,2018,00,00*74
$GNVTG,254.541,T,254.263,M,0.5036,N,0.9327,K,A*35

2018-07-13 08:06:15:219

$GPGGA,060614.00,3935.0893217,N,00023.8787344,W,1,14,0.70,56.0722,M,51.9151,M,,*7D
$GNGSA,M,3,12,25,32,15,24,02,17,29,06,,,,1.25,0.70,1.04*1A
$GNGSA,M,3,76,75,74,84,85,,,,,,,,1.25,0.70,1.04*15
$GNZDA,060614.00,13,07,2018,00,00*73
$GNVTG,081.871,T,081.592,M,0.1580,N,0.2926,K,A*3E

2018-07-13 08:06:16:218

$GPGGA,060615.00,3935.0892564,N,00023.8788505,W,1,14,0.70,56.1836,M,51.9151,M,,*79
$GNGSA,M,3,12,25,32,15,24,02,17,29,06,,,,1.25,0.70,1.04*1A
$GNGSA,M,3,76,75,74,84,85,,,,,,,,1.25,0.70,1.04*15
$GNZDA,060615.00,13,07,2018,00,00*72
$GNVTG,258.176,T,257.897,M,0.5503,N,1.0191,K,A*3F

2018-07-13 08:06:17:219

$GPGGA,060616.00,3935.0896404,N,00023.8787101,W,1,16,0.64,55.2753,M,51.9151,M,,*7D
$GNGSA,M,3,12,25,32,15,24,02,17,29,06,,,,1.18,0.64,1.00*15
$GNGSA,M,3,76,75,74,84,72,85,65,,,,,,1.18,0.64,1.00*1C
$GNZDA,060616.00,13,07,2018,00,00*71
$GNVTG,258.809,T,258.530,M,0.2769,N,0.5129,K,A*3F

2018-07-13 08:06:18:220

$GPGGA,060617.00,3935.0895067,N,00023.8788879,W,1,16,0.62,55.5027,M,51.9151,M,,*72
$GNGSA,M,3,12,25,32,15,24,02,17,29,06,,,,1.16,0.62,0.98*1D
$GNGSA,M,3,66,76,75,74,84,72,85,,,,,,1.16,0.62,0.98*17
$GNZDA,060617.00,13,07,2018,00,00*70
$GNVTG,255.451,T,255.173,M,0.2588,N,0.4794,K,A*31

2018-07-13 08:06:19:220

$GPGGA,060618.00,3935.0894440,N,00023.8789269,W,1,17,0.60,55.6092,M,51.9151,M,,*79
$GNGSA,M,3,12,25,32,15,24,19,02,17,29,06,,,1.15,0.60,0.98*14
$GNGSA,M,3,66,76,75,74,84,72,85,,,,,,1.15,0.60,0.98*16
$GNZDA,060618.00,13,07,2018,00,00*7F
$GNVTG,259.756,T,259.477,M,0.1075,N,0.1991,K,A*3E

2018-07-13 08:06:20:219

$GPGGA,060619.00,3935.0893448,N,00023.8789874,W,1,17,0.60,55.7817,M,51.9151,M,,*75
$GNGSA,M,3,12,25,32,15,24,19,02,17,29,06,,,1.15,0.60,0.98*14
$GNGSA,M,3,66,76,75,74,84,72,85,,,,,,1.15,0.60,0.98*16
$GNZDA,060619.00,13,07,2018,00,00*7E
$GNVTG,244.410,T,244.132,M,0.2588,N,0.4793,K,A*36

2018-07-13 08:06:21:219

$GPGGA,060620.00,3935.0892964,N,00023.8790374,W,1,17,0.60,55.8422,M,51.9151,M,,*7B
$GNGSA,M,3,12,25,32,15,24,19,02,17,29,06,,,1.15,0.60,0.98*14
$GNGSA,M,3,66,76,75,74,84,72,85,,,,,,1.15,0.60,0.98*16
$GNZDA,060620.00,13,07,2018,00,00*74
$GNVTG,260.676,T,260.397,M,0.4371,N,0.8094,K,A*33

2018-07-13 08:06:22:219

$GPGGA,060621.00,3935.0892724,N,00023.8791710,W,1,18,0.59,55.8188,M,51.9151,M,,*77
$GNGSA,M,3,12,25,32,15,24,19,02,17,29,06,,,1.14,0.59,0.97*10
$GNGSA,M,3,66,76,75,74,84,72,85,65,,,,,1.14,0.59,0.97*11
$GNZDA,060621.00,13,07,2018,00,00*75
$GNVTG,206.161,T,205.883,M,0.0656,N,0.1214,K,A*38

2018-07-13 08:06:23:220

$GPGGA,060622.00,3935.0892618,N,00023.8791728,W,1,18,0.59,55.8198,M,51.9151,M,,*70
$GNGSA,M,3,12,25,32,15,24,19,02,17,29,06,,,1.14,0.59,0.97*10
$GNGSA,M,3,66,76,75,74,84,72,85,65,,,,,1.14,0.59,0.97*11
$GNZDA,060622.00,13,07,2018,00,00*76
$GNVTG,242.964,T,242.685,M,0.3168,N,0.5868,K,A*32

2018-07-13 08:06:24:219

$GPGGA,060623.00,3935.0890060,N,00023.8793093,W,1,18,0.59,56.6166,M,51.9151,M,,*73
$GNGSA,M,3,12,25,32,15,24,19,02,17,29,06,,,1.14,0.59,0.97*10
$GNGSA,M,3,66,76,75,74,84,72,85,65,,,,,1.14,0.59,0.97*11
$GNZDA,060623.00,13,07,2018,00,00*77
$GNVTG,239.121,T,238.842,M,0.4897,N,0.9069,K,A*34

2018-07-13 08:06:25:219

$GPGGA,060624.00,3935.0889779,N,00023.8793135,W,1,17,0.62,56.6995,M,51.9151,M,,*7D
$GNGSA,M,3,12,25,32,15,24,19,02,17,29,06,,,1.19,0.62,1.01*1B
$GNGSA,M,3,66,75,74,84,72,85,65,,,,,,1.19,0.62,1.01*1B
$GNZDA,060624.00,13,07,2018,00,00*70
$GNVTG,257.334,T,257.056,M,0.2674,N,0.4952,K,A*37

2018-07-13 08:06:26:220

$GPGGA,060625.00,3935.0889748,N,00023.8793854,W,1,17,0.62,56.6204,M,51.9151,M,,*73
$GNGSA,M,3,12,25,32,15,24,19,02,17,29,06,,,1.19,0.62,1.01*1B
$GNGSA,M,3,66,75,74,84,72,85,65,,,,,,1.19,0.62,1.01*1B
$GNZDA,060625.00,13,07,2018,00,00*71
$GNVTG,250.982,T,250.704,M,0.3506,N,0.6493,K,A*35

2018-07-13 08:06:27:220

$GPGGA,060626.00,3935.0890004,N,00023.8794239,W,1,17,0.62,56.5104,M,51.9151,M,,*71
$GNGSA,M,3,12,25,32,15,24,19,02,17,29,06,,,1.19,0.62,1.01*1B
$GNGSA,M,3,66,75,74,84,72,85,65,,,,,,1.19,0.62,1.01*1B
$GNZDA,060626.00,13,07,2018,00,00*72
$GNVTG,070.461,T,070.182,M,0.0236,N,0.0437,K,A*32

2018-07-13 08:06:28:220

$GPGGA,060627.00,3935.0889997,N,00023.8795302,W,1,17,0.62,56.3948,M,51.9151,M,,*75
$GNGSA,M,3,12,25,32,15,24,19,02,17,29,06,,,1.19,0.62,1.01*1B
$GNGSA,M,3,66,75,74,84,72,85,65,,,,,,1.19,0.62,1.01*1B
$GNZDA,060627.00,13,07,2018,00,00*73
$GNVTG,249.841,T,249.563,M,0.5008,N,0.9275,K,A*34

2018-07-13 08:06:29:223

$GPGGA,060628.00,3935.0889883,N,00023.8796698,W,1,17,0.62,56.3169,M,51.9151,M,,*70
$GNGSA,M,3,12,25,32,15,24,19,02,17,29,06,,,1.19,0.62,1.01*1B
$GNGSA,M,3,66,75,74,84,72,85,65,,,,,,1.19,0.62,1.01*1B
$GNZDA,060628.00,13,07,2018,00,00*7C
$GNVTG,242.515,T,242.237,M,0.1123,N,0.2080,K,A*31

2018-07-13 08:06:30:223

$GPGGA,060629.00,3935.0889731,N,00023.8797687,W,1,17,0.62,56.2829,M,51.9151,M,,*74
$GNGSA,M,3,12,25,32,15,24,19,02,17,29,06,,,1.19,0.62,1.01*1B
$GNGSA,M,3,66,75,74,84,72,85,65,,,,,,1.19,0.62,1.01*1B
$GNZDA,060629.00,13,07,2018,00,00*7D
$GNVTG,251.765,T,251.487,M,0.3359,N,0.6221,K,A*39

2018-07-13 08:06:31:219

$GPGGA,060630.00,3935.0889400,N,00023.8798707,W,1,17,0.62,56.2565,M,51.9151,M,,*7E
$GNGSA,M,3,12,25,32,15,24,19,02,17,29,06,,,1.19,0.62,1.01*1B
$GNGSA,M,3,66,75,74,84,72,85,65,,,,,,1.19,0.62,1.01*1B
$GNZDA,060630.00,13,07,2018,00,00*75
$GNVTG,261.823,T,261.544,M,0.4439,N,0.8220,K,A*33

2018-07-13 08:06:32:220

$GPGGA,060631.00,3935.0889073,N,00023.8799125,W,1,17,0.62,56.2798,M,51.9151,M,,*78
$GNGSA,M,3,12,25,32,15,24,19,02,17,29,06,,,1.19,0.62,1.01*1B
$GNGSA,M,3,66,75,74,84,72,85,65,,,,,,1.19,0.62,1.01*1B
$GNZDA,060631.00,13,07,2018,00,00*74
$GNVTG,061.072,T,060.794,M,0.0817,N,0.1514,K,A*3C

2018-07-13 08:06:33:220

$GPGGA,060632.00,3935.0888841,N,00023.8799514,W,1,17,0.62,56.3044,M,51.9151,M,,*72
$GNGSA,M,3,12,25,32,15,24,19,02,17,29,06,,,1.19,0.62,1.01*1B
$GNGSA,M,3,66,75,74,84,72,85,65,,,,,,1.19,0.62,1.01*1B
$GNZDA,060632.00,13,07,2018,00,00*77
$GNVTG,235.760,T,235.482,M,0.2148,N,0.3978,K,A*38

2018-07-13 08:06:34:220

$GPGGA,060633.00,3935.0888517,N,00023.8801123,W,1,17,0.62,56.2640,M,51.9151,M,,*70
$GNGSA,M,3,12,25,32,15,24,19,02,17,29,06,,,1.19,0.62,1.01*1B
$GNGSA,M,3,66,75,74,84,72,85,65,,,,,,1.19,0.62,1.01*1B
$GNZDA,060633.00,13,07,2018,00,00*76
$GNVTG,242.795,T,242.516,M,0.6437,N,1.1922,K,A*3B

2018-07-13 08:06:35:220

$GPGGA,060634.00,3935.0888374,N,00023.8802181,W,1,17,0.62,56.2031,M,51.9151,M,,*7F
